{
  "boats": [
    {
      "name": "Le Vent",
      "type": "Jeanneau Brio, Kielyacht",
      "sailingareas": ["Ostsee"],
      "location": {
        "name": "Travemünde, Passathafen", 
        "lon": 10.878699,
        "lat": 53.957332
      }
    },
    {
      "name": "Spätlese",
      "type": "Sportina 700, Hubkielyacht",
      "sailingareas": ["Nordsee"],
      "location": {
        "name": "Horumersiel", 
        "lon": 8.022523,
        "lat": 53.684115
      }
    },
    {
      "name": "Seefalke",
      "type": "Polyvalk, gaffelgetakelte Kieljolle",
      "sailingareas": ["Mittelweser"],
      "location": {
        "name": "WVH-Hemelingen", 
        "lon": 8.873729,
        "lat": 53.047225
      }
    },
    {
      "name": "Kolk",
      "type": "Polyvalk, gaffelgetakelte Kieljolle",
      "sailingareas": ["Mittelweser", "Unterweser"],
      "location": {
        "name": "WVH-Hemelingen", 
        "lon": 8.873729,
        "lat": 53.047225
      }
    },
    {
      "name": "Zebulon",
      "type": "15er-Jollenkreuzer",
      "sailingareas": ["Mittelweser", "Unterweser", "Nordsee"],
      "location": {
        "name": "Lesum", 
        "lon": 8.678110,
        "lat": 53.161602 
      }
    }, 
    {
      "name": "JollyJumper",
      "type": "Greif-Jollenkreuzer",
      "sailingareas": ["Mecklenburgische Seenplatte"],
      "location": {
        "name": "Malchow", 
        "lon": 12.443780,
        "lat": 53.480318
      }
    }
  ]
}
